City_ID,City,Lat,Lng,Max Temp,Humidity,Cloudiness,Wind Speed,Country,Date
0,west island,-16.4174,91.1264,77,65,100,7.51,cc,1682651218
1,kristiansund,72.9592,4.7263,39,88,100,2.39,no,1682651219
2,thompson,73.5361,-94.0874,12,93,100,6.18,ca,1682651219
3,grytviken,-70.825,-29.1822,24,97,100,2.9,gs,1682651219
4,waitangi,-49.0805,-171.0479,48,65,100,12.51,nz,1682651219
5,port-aux-francais,-69.5218,69.1178,3,66,100,6.58,tf,1682651219
6,blackmans bay,-74.1042,140.2858,-56,99,64,5.84,au,1682651220
7,wailua homesteads,26.2802,-172.4538,69,65,4,7.93,us,1682651220
8,ihosy,-23.4915,46.314,53,92,17,2.95,mg,1682651220
9,vadso,70.5794,28.6573,30,96,79,3.45,no,1682651220
10,isafjordur,79.3946,-34.5441,-22,77,19,6.71,is,1682651220
11,nabire,-2.5481,135.6657,82,73,89,0.84,id,1682651221
12,beira,-20.805,35.9965,78,69,7,3.34,mz,1682651221
13,talnakh,69.9061,90.2342,16,90,99,1.05,ru,1682651221
14,borogontsy,63.7526,130.4947,34,85,100,1.47,ru,1682651222
15,ugu,26.8296,80.3618,90,19,100,1.27,in,1682651222
16,nadym,65.8632,72.939,23,93,100,9.34,ru,1682651223
17,kongsvinger,60.3773,12.6668,29,88,24,2.19,no,1682651224
18,san patricio,13.0958,-109.3771,79,70,5,3.82,mx,1682651225
19,valparaiso,-32.5462,-75.8133,65,82,100,9.1,cl,1682651226
20,longyearbyen,84.1449,18.2745,-4,92,60,7.5,sj,1682651226
21,edinburgh of the seven seas,-53.2885,2.6822,33,96,100,6.98,sh,1682651227
22,margaret river,-36.8068,97.8026,56,62,100,3.2,au,1682651227
23,verkhnevilyuysk,65.0,119.811,32,99,96,2.8,ru,1682651227
24,ushuaia,-81.6746,-66.3651,-1,99,100,4.6,ar,1682651228
25,ribeira grande,39.5648,-32.3803,58,66,53,9.97,pt,1682651229
26,luderitz,-30.0164,6.2868,65,69,85,3.79,na,1682651229
27,anadyr,45.6608,177.436,41,94,100,17.0,ru,1682651230
28,enewetak,26.2054,161.0621,73,79,7,6.09,mh,1682651230
29,tolanaro,-40.9575,49.7151,61,72,100,13.39,mg,1682651231
30,adamstown,-81.157,-121.2989,-27,76,29,6.94,pn,1682651231
31,red deer,51.7948,-113.2967,47,48,99,2.8,ca,1682651231
32,bredasdorp,-84.1821,26.1159,-49,84,69,6.77,za,1682651232
33,bilibino,82.5228,168.7646,5,94,25,2.85,ru,1682651232
34,kodiak,48.6597,-154.8128,42,74,13,3.12,us,1682651233
35,nova sintra,5.8461,-30.7615,81,74,100,6.63,cv,1682651233
36,touros,2.4602,-26.7516,82,79,100,5.28,br,1682651235
37,mhamid,28.1259,-5.0598,80,12,1,3.28,ma,1682651235
38,sitka,47.8108,-139.9343,48,97,100,6.82,us,1682651236
39,papatowai,-86.6905,169.7212,-27,96,95,8.08,nz,1682651237
40,dubrovnik,42.4511,17.9635,57,57,3,6.35,hr,1682651238
41,arkhangel'sk,71.8617,42.6422,33,71,37,2.86,ru,1682651238
42,desaguadero,-17.3134,-69.0876,44,37,0,2.04,pe,1682651239
43,tiksi,76.1217,119.749,27,83,59,1.64,ru,1682651240
44,tazovsky,86.1525,73.1814,26,95,100,4.24,ru,1682651240
45,qarazhal,46.6371,71.6962,63,30,3,8.17,kz,1682651241
46,lockhart,29.9416,-97.5729,71,91,0,2.53,us,1682651241
47,taiohae,1.1019,-153.7307,81,79,74,5.59,pf,1682651242
48,qobustan,39.7113,49.56,60,90,11,3.36,az,1682651243
49,sao miguel do araguaia,-12.2537,-51.8428,74,73,56,1.29,br,1682651243
50,klyuchi,57.8267,168.9311,32,63,6,5.46,ru,1682651244
51,ilha de mocambique,-16.1683,42.2496,80,73,35,6.26,mz,1682651244
52,puerto natales,-53.1274,-90.5767,40,68,100,15.56,cl,1682651245
53,iqaluit,78.5083,-86.9799,1,97,100,2.9,ca,1682651246
54,port moresby,-8.8878,146.8988,84,73,100,2.39,pg,1682651247
55,el calafate,-49.925,-76.2601,48,92,100,10.64,ar,1682651248
56,mahabaleshwar,17.5148,73.3229,83,49,63,0.44,in,1682651249
57,udachny,88.3179,106.4244,3,96,95,2.39,ru,1682651250
58,breckenridge,32.5983,-98.9379,63,63,0,2.06,us,1682651251
59,puerto ayora,-14.748,-93.2823,76,76,0,4.54,ec,1682651252
60,albany,-79.2351,116.8592,-54,100,100,6.32,au,1682651252
61,maydanshakhr,34.5824,68.6036,32,62,0,0.85,af,1682651252
62,magadan,55.1133,148.036,31,84,32,9.47,ru,1682651255
63,neryungri,56.7536,122.2196,27,63,11,1.22,ru,1682651255
64,bodo,72.3554,10.8107,41,86,100,0.98,no,1682651256
65,vingt cinq,-8.7615,59.9852,81,80,83,5.09,mu,1682651257
66,iskateley,66.6508,54.0641,23,88,62,4.05,ru,1682651257
67,matthew town,21.5515,-73.169,79,74,99,5.89,bs,1682651258
68,invercargill,-45.6954,159.4918,58,89,34,12.9,nz,1682651258
69,paramonga,-12.0436,-80.4029,77,68,100,4.21,pe,1682651259
70,papao,-32.2925,-149.3678,67,79,4,12.41,pf,1682651259
71,holualoa,16.8098,-155.7872,76,70,20,4.83,us,1682651260
72,katsuura,27.3686,144.9795,72,89,86,7.77,jp,1682651261
73,mendaha,-1.2656,103.1542,84,73,100,0.26,id,1682651262
74,halvad,22.9821,70.9995,83,54,16,2.07,in,1682651263
75,yellowknife,87.1636,-121.235,6,94,100,2.39,ca,1682651264
76,treasure island,27.3316,-84.0647,75,92,100,1.63,us,1682651265
77,labasa,-13.9785,179.0938,83,70,8,0.78,fj,1682651265
78,lorengau,2.6691,144.6241,84,71,100,2.51,pg,1682651266
79,hohhot,40.0198,111.8053,43,48,100,10.29,cn,1682651266
80,stanley,-79.1405,-55.0653,5,95,100,4.44,fk,1682651267
81,bethel,72.2024,-163.1813,13,86,100,6.88,us,1682651267
82,utrik,29.1635,175.2973,67,76,15,7.07,mh,1682651267
83,mount gambier,-58.3122,128.3788,34,78,64,9.23,au,1682651267
84,kataragama,2.3837,86.6317,81,78,100,1.93,lk,1682651268
85,qusmuryn,52.885,64.9016,61,44,100,3.93,kz,1682651268
86,punta arenas,-83.9202,-92.3653,-5,98,100,4.4,cl,1682651268
87,vorgashor,83.9264,62.9067,22,93,100,4.83,ru,1682651269
88,port alfred,-57.7902,33.7816,32,100,100,1.37,za,1682651269
89,mount pearl,35.3124,-45.7228,60,64,100,7.92,ca,1682651269
90,susuman,61.9901,149.9598,31,80,99,3.26,ru,1682651269
91,tazacorte,25.2948,-20.9066,70,74,0,4.81,es,1682651270
92,aral,40.1525,81.4761,66,13,99,3.9,cn,1682651270
93,forster,-33.2507,154.0296,70,73,100,8.73,au,1682651270
94,nar'yan-mar,66.4165,52.9554,21,91,58,3.38,ru,1682651271
95,sinabang,-0.8448,90.0373,83,77,100,3.46,id,1682651271
96,norwich,42.5594,-75.6558,45,81,64,1.6,us,1682651271
97,bengkulu,-7.2579,98.7048,82,79,94,3.46,id,1682651271
98,hermanus,-66.7018,10.3711,15,63,1,7.28,za,1682651271
99,wewak,-2.7561,144.2479,84,71,96,1.49,pg,1682651272
100,badger,79.7512,-144.2796,0,91,21,2.42,us,1682651272
101,hawaiian paradise park,13.6217,-146.6984,75,73,86,5.89,us,1682651272
102,namibe,-13.653,11.1486,77,77,23,6.24,ao,1682651272
103,nemuro,32.1765,158.9659,61,79,100,7.28,jp,1682651272
104,gondar,12.4602,37.2637,64,72,100,1.07,et,1682651273
105,alegrete,-30.2231,-55.9456,60,77,79,1.42,br,1682651273
106,kenora,50.9512,-94.2928,35,96,100,2.31,ca,1682651273
107,tofol,2.7088,163.8009,85,74,100,6.61,fm,1682651273
108,saint-pierre,38.8734,-54.229,54,64,100,5.13,pm,1682651274
109,barentu,14.9799,37.1739,80,47,40,0.98,er,1682651274
110,jinchang,38.6645,101.8965,33,17,0,8.3,cn,1682651274
111,crossett,33.1147,-91.5098,66,92,3,3.3,us,1682651274
112,cockburn town,25.628,-66.1027,74,73,13,4.76,tc,1682651275
113,volodarskiy,46.3964,48.7864,63,45,7,3.18,ru,1682651275
114,oriximina,0.0395,-55.4601,71,99,100,1.16,br,1682651275
115,tsiombe,-42.8649,46.8042,56,84,100,15.89,mg,1682651275
116,east london,-37.6863,31.1686,65,58,0,7.88,za,1682651275
117,torrington,42.9536,-104.1101,41,77,89,8.86,us,1682651276
118,hilo,27.1953,-148.6086,68,59,0,1.05,us,1682651276
119,petropavlovsk-kamchatsky,33.9134,169.4139,63,88,100,7.68,ru,1682651276
120,danjiangkou,33.0866,111.6386,66,44,98,6.9,cn,1682651276
121,cargados carajos,-13.4805,63.2517,81,75,57,4.64,mu,1682651277
122,ilulissat,76.1924,-42.0051,-26,100,99,5.44,gl,1682651277
123,mount isa,-20.0899,138.6182,88,27,5,3.88,au,1682651277
124,richfield,39.0272,-112.9772,66,23,85,6.3,us,1682651277
125,zouerate,22.8757,-11.3555,83,21,0,5.28,mr,1682651278
126,lazaro cardenas,25.4317,-123.2769,62,79,100,4.12,mx,1682651278
127,howard springs,-11.221,137.0203,83,71,82,5.88,au,1682651278
128,port saint john's,-34.927,31.3331,68,66,0,6.26,za,1682651278
129,lequile,40.2632,18.1149,55,63,18,5.1,it,1682651278
130,ixtapa,7.6216,-106.7874,83,73,5,1.8,mx,1682651279
131,vila velha,-21.5204,-35.9257,80,81,4,8.37,br,1682651279
132,sittwe,16.8117,90.5616,84,68,27,2.65,mm,1682651279
133,kencong,-14.585,112.4642,82,72,7,8.16,id,1682651279
134,olonkinbyen,72.359,-2.5849,32,96,100,13.93,sj,1682651280
135,coquimbo,-27.8194,-85.6934,69,83,99,7.82,cl,1682651280
136,kalmunai,6.9458,84.4053,85,72,100,4.46,lk,1682651280
137,springs,38.3621,-70.813,57,62,97,3.78,us,1682651281
138,cavnic,47.6149,23.8224,26,82,4,1.25,ro,1682651281
139,sabzevar,36.5002,57.8062,67,25,78,2.9,ir,1682651281
140,georgetown,-5.7548,-23.3964,82,72,100,5.38,sh,1682651282
141,sagae,38.4835,140.2213,64,38,0,1.01,jp,1682651283
142,labytnangi,80.6002,71.3874,15,94,99,1.29,ru,1682651283
143,bom sucesso,-20.9616,-44.8174,62,93,24,0.27,br,1682651283
144,armacao de buzios,-23.8628,-39.3638,78,74,1,4.95,br,1682651284
145,rosalie,15.5507,-60.2977,80,79,14,5.02,dm,1682651284
146,ahau,-11.2767,172.9116,84,73,14,4.21,fj,1682651286
147,swabi,34.316,72.4721,62,54,5,2.2,pk,1682651287
148,haiku-pauwela,23.2144,-154.5021,73,70,31,2.36,us,1682651287
149,port mathurin,-19.3395,62.6973,79,81,59,5.48,mu,1682651288
150,peasedown saint john,51.3688,-2.4417,54,96,100,4.12,gb,1682651288
151,ust-nera,79.2702,150.4258,18,87,100,4.98,ru,1682651288
152,okha,55.0363,145.4434,31,86,100,7.88,ru,1682651289
153,mili,6.2821,176.0231,82,80,16,8.06,mh,1682651289
154,cidreira,-31.8005,-48.1131,72,59,18,8.81,br,1682651290
155,puerto baquerizo moreno,-3.4933,-86.1285,82,77,63,2.88,ec,1682651291
156,kailua-kona,5.338,-161.8996,81,80,100,5.59,us,1682651291
157,chonchi,-46.0028,-86.0516,48,75,100,7.72,cl,1682651292
158,walvis bay,-23.9045,12.2764,65,90,0,9.73,na,1682651292
159,tangalle,-4.443,86.0748,82,78,100,4.92,lk,1682651293
160,lihue,16.8385,-169.3909,78,76,70,9.58,us,1682651293
161,aasiaat,87.161,-57.7407,-2,93,100,7.32,gl,1682651294
162,fort st. john,57.1021,-121.5698,44,61,100,5.22,ca,1682651294
163,kenai,62.0728,-155.6587,38,77,100,3.46,us,1682651295
164,port elizabeth,-46.9554,27.5091,49,83,100,18.29,za,1682651295
165,kaduna,10.7248,7.3578,74,74,99,2.72,ng,1682651296
166,brits,-25.2813,27.7965,67,60,22,1.09,za,1682651296
167,atafu village,10.429,-176.562,81,75,41,8.72,tk,1682651297
168,hamilton,31.1332,-70.822,69,76,85,8.6,bm,1682651297
169,oromocto,45.8666,-66.1447,39,97,99,1.39,ca,1682651298
170,san antonio de pale,-2.306,-1.501,81,79,100,5.37,gq,1682651298
171,hobyo,3.3977,55.3493,83,73,91,2.09,so,1682651299
172,saint-philippe,-24.5894,56.4748,77,71,6,4.47,re,1682651299
173,al burayqah,30.2287,19.105,62,65,0,5.58,ly,1682651300
174,bontang,1.477,117.9483,85,61,97,2.64,id,1682651300
175,ketchikan,51.8108,-135.0242,45,99,100,2.78,us,1682651301
176,fuvahmulah,-0.8877,80.0009,83,76,100,5.95,mv,1682651301
177,inarajan village,11.5829,145.6692,83,80,14,9.17,gu,1682651302
178,bubaque,10.3036,-17.2965,77,76,100,6.87,gw,1682651302
179,vernon,47.065,-131.9421,50,88,6,1.47,ca,1682651303
180,st. john's,46.6204,-45.81,40,86,100,12.08,ca,1682651303
181,'ohonua,-29.3518,-179.7392,69,76,100,13.28,to,1682651304
182,madalena,36.4347,-27.8314,63,78,0,9.53,pt,1682651304
183,port lincoln,-47.788,127.5593,43,65,100,7.71,au,1682651305
184,geraldton,-32.0659,102.2044,62,67,100,9.34,au,1682651306
185,whitehorse,64.2986,-140.4338,33,92,96,1.56,ca,1682651306
186,kavieng,0.0928,149.5296,84,73,84,2.63,pg,1682651306
187,delijan,33.8068,51.2366,58,51,42,0.69,ir,1682651307
188,bamboo flat,13.4217,91.467,85,70,5,2.07,in,1682651308
189,floro,63.6575,1.3153,34,74,100,2.19,no,1682651309
190,dudinka,84.2655,83.173,19,95,98,4.4,ru,1682651311
191,revda,69.7399,37.996,33,75,8,7.99,ru,1682651312
192,freetown,1.0458,-23.1508,82,77,15,4.24,sl,1682651312
193,new ross,52.4575,-7.0397,52,1,100,1.35,ie,1682651313
194,lethem,3.6128,-59.4636,75,88,66,2.01,gy,1682651313
195,cox's bazar,21.3018,91.6583,83,72,19,1.07,bd,1682651313
196,coahuayana de hidalgo,10.7358,-107.0714,82,72,27,4.81,mx,1682651314
197,suoyarvi,63.0792,32.7032,37,93,77,4.74,ru,1682651315
198,thunder bay,56.7232,-87.4069,27,98,100,1.87,ca,1682651315
199,kilindoni,-7.5226,41.5701,81,81,99,8.67,tz,1682651316
200,mitu,2.0517,-69.1547,73,97,71,0.28,co,1682651316
201,puerto san carlos,14.376,-131.139,75,75,47,6.56,mx,1682651317
202,tura,62.2831,97.3753,28,74,47,2.21,ru,1682651317
203,college,68.8257,-152.575,3,90,100,1.44,us,1682651317
204,buala,-8.0052,158.9744,86,62,10,1.91,sb,1682651318
205,keflavik,59.0306,-29.3038,43,90,100,16.13,is,1682651318
206,toliara,-25.7413,41.7425,75,66,70,6.56,mg,1682651319
207,jamestown,-11.9646,0.5477,75,77,100,6.49,sh,1682651320
208,karratha,-18.866,113.1737,80,63,99,4.64,au,1682651320
209,alotau,-11.012,149.7497,83,75,84,5.87,pg,1682651321
210,lompoc,27.748,-130.0032,62,75,13,5.27,us,1682651322
211,ridgecrest,35.7781,-117.761,83,13,40,2.57,us,1682651323
212,muborak,39.0216,64.7349,73,23,0,1.41,uz,1682651324
213,saipan,18.6007,153.9702,78,72,2,8.01,mp,1682651324
214,pingyin,36.4027,116.5701,67,59,100,3.31,cn,1682651325
215,egilsstadir,65.4639,-11.046,31,72,100,9.34,is,1682651325
216,chinde,-19.238,36.2968,79,67,21,3.93,mz,1682651325
217,sioux center,43.1016,-96.3428,56,74,100,4.13,us,1682651325
218,lockwood,46.3593,-108.4108,44,59,40,3.1,us,1682651326
219,akureyri,68.6087,-16.191,26,76,81,8.69,is,1682651326
220,kerikeri,-28.3773,177.4316,67,82,100,13.98,nz,1682651326
221,vilyuchinsk,47.3007,156.5404,35,93,100,7.57,ru,1682651327
222,matoury,4.334,-52.107,72,99,100,0.97,gf,1682651327
223,cooma,-37.2805,149.7095,79,32,87,3.28,au,1682651327
224,bima,-7.9534,118.7822,81,84,100,6.8,id,1682651327
225,mogocha,52.7059,120.305,36,72,100,5.02,ru,1682651328
226,malango,-10.5158,159.6944,83,72,12,1.97,sb,1682651328
227,jiagedaqi,51.0894,124.7349,48,27,100,4.04,cn,1682651328
228,yangjiang,20.5716,112.0278,77,89,8,7.22,cn,1682651328
229,yuzhno-kurilsk,39.5693,157.3171,54,69,0,15.81,ru,1682651329
230,weno,5.2134,145.0345,84,69,48,1.42,fm,1682651329
231,ta`u,-15.5578,-164.3691,82,72,23,6.13,as,1682651329
232,constantia,-49.6905,6.9068,39,85,100,9.71,za,1682651329
233,kirchseeon,48.0987,11.918,47,90,100,1.79,de,1682651330
234,port douglas,-14.8354,143.5746,89,43,4,3.63,au,1682651330
235,bolu,40.5516,31.6056,33,98,100,2.5,tr,1682651330
236,devinuwara,1.4638,80.1122,84,74,100,3.79,lk,1682651330
237,lagoa,-28.7127,-45.6282,72,68,5,9.32,br,1682651330
238,remire-montjoly,4.5465,-50.2461,81,76,100,5.86,gf,1682651331
239,la passe,-4.2006,60.3586,83,76,100,2.87,sc,1682651331
240,acapulco de juarez,11.4915,-101.0852,83,66,32,2.07,mx,1682651331
241,gadzhiyevo,89.2876,40.4725,-5,97,99,4.51,ru,1682651331
242,krasnokamensk,49.7932,118.4099,48,41,93,4.45,ru,1682651332
243,zaysan,47.8518,84.8527,61,35,51,3.49,kz,1682651332
244,hitchcock,29.1275,-94.9891,72,76,61,4.21,us,1682651332
245,gueltat zemmour,25.0571,-13.588,67,67,0,4.13,ma,1682651332
246,santa rosalia,27.6544,-111.7218,73,57,0,2.36,mx,1682651332
247,sirjan,28.8225,55.3101,58,63,69,2.04,ir,1682651333
248,bure,10.4579,37.0365,62,74,99,0.24,et,1682651333
249,nguigmi,15.7465,12.8979,81,12,1,3.16,ne,1682651333
250,warwick,-28.0945,152.0062,76,38,43,1.58,au,1682651333
251,berrahal,37.1939,7.2948,65,72,44,4.13,dz,1682651333
252,coxim,-17.916,-55.5141,72,93,0,2.35,br,1682651334
253,arraial do cabo,-30.6238,-30.5326,72,91,100,11.22,br,1682651334
254,adjumani,3.3235,32.3058,69,96,100,2.6,ug,1682651334
255,charlestown,16.6846,-63.0261,81,73,35,2.43,kn,1682651334
256,alofi,-17.4304,-169.311,80,80,100,4.91,nu,1682651335
257,shangzhi,44.7814,128.4838,49,89,100,1.25,cn,1682651335
258,qaqortoq,57.5273,-41.4552,40,84,98,18.0,gl,1682651335
259,alice springs,-28.6891,132.8824,72,34,99,5.11,au,1682651335
260,yaring,7.3689,101.6014,84,75,100,2.25,th,1682651336
261,greenville,1.1937,-12.582,82,77,81,4.29,lr,1682651336
262,pajapan,18.6847,-94.594,80,83,35,5.31,mx,1682651336
263,callaway,28.5187,-84.645,72,87,100,4.88,us,1682651336
264,lionel town,16.938,-77.3281,81,71,8,5.44,jm,1682651336
265,tarinkot,32.5557,65.3594,76,23,36,1.17,af,1682651337
266,pueblo nuevo,23.1944,-105.404,52,60,0,1.03,mx,1682651337
267,iwanai,43.1276,139.1156,47,95,100,6.79,jp,1682651337
268,kiama,-38.1,157.4318,66,73,29,8.9,au,1682651337
269,barakani,-10.7457,46.1153,82,78,36,9.64,km,1682651338
270,queenstown,-43.9759,163.9176,59,80,91,8.71,nz,1682651338
271,avarua,-22.2749,-156.9625,73,67,97,5.71,ck,1682651338
272,the pas,53.1762,-99.8402,34,97,100,2.74,ca,1682651338
273,jayapura,0.8682,140.2526,84,70,63,0.65,id,1682651338
274,betio village,3.0863,172.1814,83,78,88,6.43,ki,1682651339
275,happy valley-goose bay,54.1898,-61.4279,31,89,82,3.07,ca,1682651339
276,magdeburg,52.1353,11.6158,43,76,100,2.91,de,1682651339
277,lozuvatka,48.089,33.2147,46,88,100,6.31,ua,1682651339
278,argostolion,36.3321,19.0491,61,65,100,8.16,gr,1682651339
279,kokstad,-30.9563,29.7179,61,93,100,0.82,za,1682651340
280,powell,44.6351,-108.1599,45,53,0,10.29,us,1682651340
281,boleslawiec,51.3175,15.4843,40,77,100,2.21,pl,1682651340
282,penzance,48.9967,-5.8339,54,89,93,7.41,gb,1682651340
283,carnarvon,-25.994,116.4267,76,25,24,8.53,au,1682651340
284,lebu,-31.482,-86.3913,68,74,81,13.2,cl,1682651341
285,suva,-19.3775,177.4843,82,78,18,6.33,fj,1682651341
286,san jose de jachal,-29.7937,-68.5948,50,41,0,0.62,ar,1682651341
287,san rafael,-34.1636,-68.4848,64,46,4,3.96,ar,1682651341
288,kill devil hills,34.4631,-70.7397,65,68,65,8.02,us,1682651342
289,brookings,40.8572,-138.4301,54,91,100,5.92,us,1682651342
290,rongelap,26.9809,167.2737,72,73,0,5.44,mh,1682651343
291,al wafrah,28.6784,47.5566,79,20,0,3.07,kw,1682651344
292,awjilah,26.2106,19.3983,66,44,0,5.13,ly,1682651344
293,gislaved,57.5324,13.6368,34,92,0,1.79,se,1682651345
294,gonabad,34.5811,58.8348,72,13,57,2.8,ir,1682651346
295,temryuk,45.7934,37.1506,54,95,99,3.57,ru,1682651347
296,fortuna,38.796,-142.3737,56,94,97,8.71,us,1682651348
297,batangafo,7.2798,18.2873,74,77,99,0.26,cf,1682651351
298,sault ste. marie,47.6075,-83.6735,36,93,100,3.78,ca,1682651353
299,vigia,-0.9795,-48.1248,73,96,100,0.7,br,1682651353
300,dunedin,-59.5427,178.9342,42,97,100,10.9,nz,1682651353
301,salinopolis,4.2661,-45.7664,81,78,98,7.31,br,1682651354
302,chuguyevka,44.2731,134.0041,48,71,100,1.14,ru,1682651360
303,hachinohe,40.3791,141.4683,64,38,38,5.99,jp,1682651363
304,torghay,48.9905,64.3062,66,29,6,5.01,kz,1682651370
305,mahina,-14.3502,-145.224,83,77,44,6.35,pf,1682651371
306,aldinga beach,-35.7271,137.7156,60,49,94,4.75,au,1682651372
307,kingston,-36.4076,163.4763,64,69,77,4.41,nf,1682651372
308,masumbwe,-3.8191,32.2537,61,94,44,0.86,tz,1682651373
309,nalut,31.6394,10.2734,67,37,0,5.23,ly,1682651373
310,harper,-2.0844,-10.3381,81,76,18,5.35,lr,1682651373
311,arteche,14.9896,131.4208,84,80,8,8.68,ph,1682651374
312,mugia,46.5541,-12.3188,57,93,100,3.73,es,1682651374
313,al wajh,26.4722,35.8571,76,73,0,7.25,sa,1682651375
314,greymouth,-37.8996,164.6296,62,65,85,4.58,nz,1682651375
315,hamlin,43.5112,-77.9627,47,76,37,6.29,us,1682651375
316,terrace,57.4604,-128.7938,25,82,88,4.17,ca,1682651376
317,fort bragg,39.0347,-124.2761,53,92,6,5.86,us,1682651376
318,kapuskasing,63.3492,-84.8267,25,97,100,3.54,ca,1682651377
319,christchurch,-44.4517,173.3739,55,89,0,7.63,nz,1682651378
320,taro,-4.7892,157.1371,85,73,93,3.67,sb,1682651378
321,sayalkudi,8.6967,78.6649,84,74,100,5.84,in,1682651378
322,lexington,42.215,-99.5447,53,81,100,4.5,us,1682651378
323,umatac village,13.1684,142.8224,82,85,2,8.8,gu,1682651379
324,kigoma,-4.7186,28.7703,62,93,72,1.71,tz,1682651379
325,kolonia,8.5776,158.3836,82,81,97,9.78,fm,1682651380
326,xilin hot,46.1727,117.585,42,36,57,7.53,cn,1682651380
327,cabo san lucas,11.2582,-116.3369,80,70,92,4.97,mx,1682651380
328,huarmey,-15.7772,-89.4758,74,77,0,4.57,pe,1682651381
329,kirensk,61.3079,108.8199,35,74,65,4.31,ru,1682651381
330,shanghai,30.9238,121.9384,73,89,46,5.18,cn,1682651382
331,aconibe,1.1042,10.9288,67,99,100,0.94,gq,1682651382
332,baringo,0.5169,36.0787,69,76,82,0.24,ke,1682651382
333,rio gallegos,-51.1217,-68.7788,48,75,100,3.73,ar,1682651383
334,kone,-20.1573,164.0304,77,69,22,9.34,nc,1682651384
335,luena,-13.7398,20.1289,54,59,55,0.61,ao,1682651384
336,tingi,-11.5915,34.9852,64,84,27,2.95,tz,1682651386
337,benguela,-13.178,12.5292,79,80,90,4.9,ao,1682651386
338,flying fish cove,-17.4502,106.8438,78,79,100,8.82,cx,1682651386
339,salima,-13.5426,34.4217,68,84,59,3.04,mw,1682651387
340,progreso,23.8787,-90.3588,78,87,99,4.37,mx,1682651387
341,escanaba,45.1583,-86.7021,47,77,100,5.61,us,1682651387
342,porto belo,-27.2113,-48.3859,68,82,8,5.41,br,1682651387
343,broken hill,-29.7789,143.02,80,30,58,2.97,au,1682651388
344,afaahiti,-14.6552,-144.2859,83,77,44,6.65,pf,1682651388
345,roja,58.0241,23.1015,41,85,22,5.87,lv,1682651388
346,siwa oasis,28.8702,25.3183,59,56,0,3.98,eg,1682651389
347,murray bridge,-35.6822,140.3885,59,65,93,2.94,au,1682651389
348,kidal,19.5207,-0.7316,82,9,0,1.97,ml,1682651389
349,summerside,46.1681,-63.972,38,82,100,2.59,ca,1682651390
350,ad-damazin,11.1308,35.4214,76,68,97,1.13,sd,1682651390
351,woolgoolga,-30.8576,155.0169,71,57,70,5.52,au,1682651390
352,orapa,-21.7628,25.2663,66,50,2,3.32,bw,1682651390
353,mejit,11.9694,172.7236,80,82,60,8.99,mh,1682651391
354,namdrik,4.6459,166.7318,84,74,87,6.24,mh,1682651391
355,manaure,13.5945,-73.1262,80,79,9,8.07,co,1682651391
356,launceston,-41.847,147.5787,57,77,89,7.26,au,1682651391
357,smithers,55.4932,-127.7234,44,91,98,1.33,ca,1682651392
358,inhambane,-22.966,37.8824,76,70,2,6.6,mz,1682651392
359,n'diareme limamoulaye,16.7099,-18.942,70,85,2,8.84,sn,1682651392
360,uttarkashi,31.4416,78.6364,28,55,40,1.33,in,1682651392
361,tamazunchale,20.9789,-99.0273,75,93,78,1.51,mx,1682651392
362,konstantinovskiy,57.9821,39.8498,45,93,45,3.46,ru,1682651393
363,san luis de la loma,8.9471,-105.4595,84,72,4,2.4,mx,1682651393
364,vredendal,-32.4015,18.7042,52,95,0,0.55,za,1682651393
365,bakchar,56.7765,81.8921,62,51,96,4.7,ru,1682651394
366,pandan,18.1014,131.1456,83,81,10,7.14,ph,1682651394
367,camalu,29.7006,-118.652,58,86,53,5.0,mx,1682651394
368,taoudenni,24.0452,-6.2098,82,8,0,3.19,ml,1682651394
369,alvand,36.6098,49.0744,51,48,100,0.71,ir,1682651394
370,colonia,13.661,139.4145,83,78,0,9.98,fm,1682651395
371,souk ahras,36.4564,8.0759,48,55,51,2.41,dz,1682651395
372,rahachow,53.4027,29.929,34,88,5,2.93,by,1682651395
373,twon-brass,2.3727,4.1211,83,72,100,2.48,ng,1682651395
374,ubinskoye,55.436,79.5159,64,36,100,7.01,ru,1682651396
375,motygino,59.509,94.2293,34,96,100,1.99,ru,1682651396
376,augusto correa,0.3089,-46.3002,79,80,100,2.56,br,1682651396
377,nelson bay,-38.0103,158.2514,66,72,0,9.16,au,1682651397
378,vilyuysk,65.1137,120.8494,32,99,99,3.02,ru,1682651397
379,minas de matahambre,25.3122,-86.4217,79,86,54,7.96,cu,1682651397
380,hadibu,14.6561,53.5649,84,78,47,4.24,ye,1682651397
381,plastun,45.4242,137.1821,47,66,97,2.9,ru,1682651397
382,wuhai,39.5015,108.2216,37,43,65,19.36,cn,1682651397
383,cuajinicuilapa,15.5108,-98.6753,82,66,0,4.54,mx,1682651398
384,medeiros neto,-17.4933,-40.0235,71,87,0,3.92,br,1682651398
385,paka,5.7829,106.5619,84,76,63,3.97,my,1682651398
386,ancud,-43.1326,-96.7096,52,78,100,14.09,cl,1682651398
387,mokhsogollokh,60.1559,129.0152,35,93,100,2.5,ru,1682651399
388,juruti,-2.3813,-56.1637,73,96,83,1.14,br,1682651399
389,casper,42.5249,-106.5181,37,99,100,5.37,us,1682651399
390,pucheng,27.7155,118.8372,78,61,65,1.7,cn,1682651399
391,sisimiut,63.6915,-59.1958,29,85,100,5.22,gl,1682651400
392,urangan,-25.1006,154.7104,74,68,1,7.6,au,1682651400
393,markovo,57.2532,107.0831,39,56,76,3.37,ru,1682651400
394,greater sudbury,46.1605,-80.6762,43,61,98,1.56,ca,1682651401
395,berrouaghia,36.2238,3.1433,65,31,21,1.36,dz,1682651401
396,simanggang,1.0121,112.309,84,63,82,0.92,my,1682651402
397,campbellton,48.0133,-66.5807,36,91,97,0.37,ca,1682651402
398,teguise,31.3914,-13.0184,67,81,100,3.36,es,1682651403
399,praia da vitoria,44.7642,-22.6252,58,90,3,10.48,pt,1682651404
400,murzuq,24.0512,13.4019,72,17,0,4.55,ly,1682651404
401,hammerfest,74.053,20.9332,39,89,99,11.29,no,1682651405
402,nizhnesortymskiy,64.0629,70.2899,24,94,100,11.73,ru,1682651406
403,bayan nur,40.7264,108.3816,40,42,92,12.3,cn,1682651406
404,tasbuget,42.8056,65.1958,69,20,0,1.96,kz,1682651407
405,horta,51.0202,-31.4273,51,93,11,7.6,pt,1682651407
406,tobol,52.9126,62.1032,60,46,100,2.51,kz,1682651408
407,itoman,23.0664,129.2711,76,91,100,6.37,jp,1682651408
408,forbesganj,26.2312,87.2158,88,26,61,1.91,in,1682651409
409,vadodara,22.1924,73.2585,82,65,40,3.09,in,1682651409
410,gulf shores,26.0878,-87.2411,79,87,81,6.95,us,1682651409
411,kutiyana,21.5472,69.8985,81,69,0,1.64,in,1682651410
412,pontes e lacerda,-14.2103,-58.9702,70,88,1,1.79,br,1682651410
413,cooper's town,28.498,-76.8649,74,80,100,5.79,bs,1682651411
414,porto seguro,-17.5409,-35.2313,80,73,8,4.12,br,1682651412
415,borba,-4.7034,-59.08,74,91,73,0.85,br,1682651412
416,yanqul,23.59,56.0825,79,20,0,0.96,om,1682651413
417,kokopo,-4.8539,151.7946,86,67,74,1.33,pg,1682651414
418,alaghsas,17.0238,8.0648,83,12,68,3.48,ne,1682651414
419,t'ongch'on-up,39.2308,127.7753,55,53,100,0.52,kp,1682651414
420,dinguiraye,11.3812,-10.3824,79,12,100,1.68,gn,1682651415
421,postmasburg,-28.7376,23.4402,56,29,6,1.63,za,1682651416
422,hirara,23.697,125.18,76,82,100,5.32,jp,1682651416
423,codrington,27.4017,-45.7667,69,65,100,5.23,ag,1682651417
424,pisco,-26.605,-93.9966,70,63,2,8.19,pe,1682651417
425,shimoda,25.2936,140.9368,76,85,22,5.34,jp,1682651418
426,teluk nibung,3.5528,100.1555,83,71,100,2.06,id,1682651418
427,sooke,48.2098,-123.6566,60,65,0,2.57,ca,1682651419
428,yanbu,23.2717,37.4914,77,74,0,6.23,sa,1682651419
429,saudarkrokur,74.6072,-19.9212,5,97,100,2.92,is,1682651420
430,bam,27.9384,58.4435,77,27,99,2.05,ir,1682651420
431,novi sad,45.4211,19.8519,39,72,10,1.72,rs,1682651420
432,richards bay,-29.9186,34.7499,76,87,100,8.43,za,1682651421
433,la sarre,49.2644,-79.417,36,93,100,2.84,ca,1682651422
434,mata-utu,-10.2919,-177.165,83,75,37,5.82,wf,1682651422
435,kharp,66.3085,65.7688,23,82,100,3.28,ru,1682651423
436,lappeenranta,61.131,28.1867,37,99,100,2.06,fi,1682651423
437,sougueur,35.3304,1.562,66,22,15,1.92,dz,1682651424
438,ciudad lazaro cardenas,14.1109,-104.5302,80,66,5,2.49,mx,1682651424
439,prince rupert,54.9042,-130.4334,40,92,100,0.88,ca,1682651425
440,kalach-na-donu,49.0709,43.6481,56,68,84,3.38,ru,1682651425
441,al bawiti,29.455,28.4803,59,68,0,3.16,eg,1682651426
442,acarau,10.0226,-38.9481,77,77,36,7.05,br,1682651426
443,toga village,-6.9823,174.8218,85,73,83,6.71,tv,1682651427
444,turpan,39.9437,88.8114,66,13,0,7.06,cn,1682651427
445,troitskoye,52.9311,84.3146,61,51,100,5.22,ru,1682651428
446,urzhar,45.6088,82.081,71,16,6,9.71,kz,1682651428
447,webster,43.3721,-77.1857,48,66,0,1.54,us,1682651429
448,adrar,26.3882,-3.6023,80,12,0,5.28,dz,1682651429
449,bandirma,40.3162,27.9362,48,93,75,1.03,tr,1682651430
450,ghardaia,32.6645,3.1818,73,16,5,2.82,dz,1682651430
451,vorkuta,85.3628,70.1543,18,96,100,4.07,ru,1682651431
452,mynamaki,60.8164,21.9417,34,94,0,1.92,fi,1682651431
453,berdigestyakh,61.6942,125.5473,37,94,57,1.78,ru,1682651431
454,obo,3.8303,26.3879,69,84,100,0.73,cf,1682651432
455,tinsukia,27.5389,95.3844,73,53,99,1.77,in,1682651433
456,rio san juan,19.8633,-69.9687,79,77,100,4.23,do,1682651433
457,metlili chaamba,31.5362,2.3801,77,14,0,2.74,dz,1682651433
458,kayangel,9.0553,132.4864,85,76,90,5.49,pw,1682651434
459,ghorawal,24.4995,82.6808,89,27,100,3.86,in,1682651435
460,aljezur,37.2997,-9.1264,63,86,89,5.9,pt,1682651435
461,west bay,19.7364,-83.1533,82,71,98,6.62,ky,1682651436
462,trairi,5.9999,-35.0293,80,72,36,6.64,br,1682651436
463,fernley,40.4605,-118.9241,69,19,84,3.54,us,1682651437
464,umarkot,19.5922,82.047,81,45,97,3.2,in,1682651437
465,zhigalovo,54.7866,105.542,41,54,97,2.59,ru,1682651438
466,ytyk-kyuyel',63.1778,133.2106,37,83,100,0.51,ru,1682651438
467,virginia,48.6879,-91.9161,31,99,100,1.64,us,1682651439
468,edson,53.3776,-116.675,47,60,100,2.23,ca,1682651439
469,san mariano,17.0553,124.5312,81,81,1,5.16,ph,1682651440
470,kapa'a,34.4121,-157.13,62,84,100,7.45,us,1682651440
471,palasa,16.5517,86.47,84,68,75,1.52,in,1682651440
472,vitorino freire,-4.0481,-45.7012,73,97,100,0.06,br,1682651442
473,agadez,16.8401,7.6181,84,14,62,3.74,ne,1682651442
474,banamba,14.9813,-7.5468,79,11,17,3.24,ml,1682651443
475,hoxtolgay,46.4192,87.5136,60,30,62,2.52,cn,1682651443
476,i-n-salah,25.317,3.34,83,14,7,2.53,dz,1682651444
477,chifeng,43.8825,118.3114,53,13,18,5.78,cn,1682651444
478,weiser,44.36,-117.1702,64,51,71,3.35,us,1682651445
479,kudahuvadhoo,1.3646,64.0569,84,70,100,1.8,mv,1682651445
480,leava,-10.833,-179.3387,84,72,79,4.71,wf,1682651446
481,ojinaga,29.7874,-104.7598,74,12,0,1.57,mx,1682651446
482,portland,-47.4148,136.664,42,60,100,12.9,au,1682651447
483,kasempa,-14.23,25.9267,55,83,9,1.97,zm,1682651447
484,natal,-4.8312,-31.2025,82,78,100,3.84,br,1682651447
485,basco,20.2059,122.143,79,85,26,6.54,ph,1682651448
486,kabare,-2.7273,28.6722,59,97,100,1.86,cd,1682651448
487,nogliki,52.4848,144.6844,30,90,100,7.6,ru,1682651448
488,irymple,-34.6073,141.2156,66,59,54,5.49,au,1682651449
489,newman,-23.8563,117.6543,83,25,96,6.35,au,1682651449
490,skikda,37.7435,6.9239,65,76,27,5.73,dz,1682651450
491,sibay,52.37,58.9854,59,57,100,3.7,ru,1682651450
492,santa cruz del norte,23.8267,-81.9838,80,80,94,4.69,cu,1682651450
493,polyarnyy,79.0275,42.824,21,90,100,4.33,ru,1682651450
494,magdagachi,53.4182,126.4416,46,36,69,2.66,ru,1682651450
495,mao,16.5541,15.7832,83,12,2,3.46,td,1682651451
496,fort-shevchenko,44.3896,50.8827,64,61,0,4.15,kz,1682651451
497,cabedelo,-6.4492,-25.0487,82,73,10,4.74,br,1682651451
498,timiryazevskoye,56.5396,84.7849,62,53,100,4.58,ru,1682651452
499,banting,2.8049,101.6049,88,74,20,0.0,my,1682651452
500,antonio enes,-16.7581,40.3181,80,66,77,6.52,mz,1682651452
501,mahibadhoo,4.3894,68.0749,83,69,88,2.67,mv,1682651452
502,tripoli,33.8756,12.8645,65,80,95,2.9,ly,1682651452
503,brindisi,41.5375,18.2002,59,66,2,1.86,it,1682651453
504,santa ana,19.4833,127.2578,81,84,16,7.18,ph,1682651453
505,cable beach,-20.7001,122.1879,87,23,95,8.43,au,1682651453
506,anna regina,8.503,-58.0188,81,83,96,6.63,gy,1682651453
507,pahrump,37.0749,-115.7575,72,12,36,3.56,us,1682651454
508,yerofey pavlovich,53.4885,122.5161,45,38,100,2.99,ru,1682651454
509,manta,-1.0003,-81.4806,82,78,100,4.28,ec,1682651454
510,pasuquin,19.9401,118.6387,79,87,9,8.15,ph,1682651455
511,santo nino,7.6874,125.5602,86,57,80,2.54,ph,1682651455
512,fale old settlement,3.4402,-161.7519,81,80,80,4.83,tk,1682651455
513,lamu,-4.8095,45.3275,82,79,100,8.03,ke,1682651455
514,zhanaozen,43.9532,53.3342,70,43,0,3.37,kz,1682651456
515,onguday,50.2333,87.1373,36,73,94,1.29,ru,1682651456
516,keetmanshoop,-25.6392,19.4414,66,38,5,2.36,na,1682651456
517,x-can,20.7752,-87.5263,76,85,74,2.02,mx,1682651456
518,sokcho,38.7985,129.9997,58,65,67,3.65,kr,1682651456
519,zonguldak,43.5198,30.8754,51,75,100,12.18,tr,1682651457
520,am djarass,17.9868,24.9782,73,17,100,4.28,td,1682651457
521,rio grande,-34.2809,-50.3499,68,63,1,6.83,br,1682651457
522,usak,38.7585,29.552,37,84,90,2.8,tr,1682651457
523,gua musang,4.8477,102.0353,86,61,97,0.4,my,1682651458
524,meulaboh,3.7204,96.0428,82,76,99,1.46,id,1682651458
525,cam ranh,10.2317,113.117,84,77,84,5.78,vn,1682651458
526,ivdel',62.1579,59.8495,29,77,12,2.52,ru,1682651459
527,price,40.1176,-110.8952,45,66,50,4.95,us,1682651459
528,sandnessjoen,73.0133,7.9097,40,84,100,2.23,no,1682651459
529,jianshui,24.1905,101.3647,70,32,0,2.3,cn,1682651459
530,sonoita,31.4899,-112.9039,78,20,0,2.31,mx,1682651460
531,jinjiang,19.633,109.9441,88,58,35,5.54,cn,1682651460
532,prado,-19.5621,-30.5779,78,80,1,5.55,br,1682651460
533,puerto deseado,-46.7538,-60.7119,51,79,52,5.28,ar,1682651460
534,nantucket,39.0806,-68.522,52,67,32,2.71,us,1682651461
535,daru,-10.3351,139.8078,83,74,93,6.58,pg,1682651461
536,hithadhoo,-2.5036,72.8755,84,70,100,1.41,mv,1682651461
537,kardla,59.1418,22.2663,36,78,11,4.71,ee,1682651462
538,inverness,57.1434,-4.504,36,98,100,0.37,gb,1682651463
539,qamdo,33.0882,99.6123,28,38,100,6.17,cn,1682651463
540,kolwezi,-10.8096,24.8309,57,86,71,2.4,cd,1682651464
541,kavaratti,9.666,69.5228,82,66,73,0.64,in,1682651464
542,as sulayyil,21.439,43.9249,77,33,16,1.28,sa,1682651465
543,ar rass,25.5237,43.7654,73,36,0,4.82,sa,1682651466
544,turtas,59.3707,69.6934,37,95,100,4.9,ru,1682651466
545,al kharijah,23.1374,30.6526,74,20,0,1.64,eg,1682651466
546,childress,34.484,-100.3466,58,67,0,5.14,us,1682651467
547,marsh harbour,28.0703,-75.3717,73,79,100,4.79,bs,1682651467
548,igarka,68.0337,86.9877,23,87,42,3.21,ru,1682651468
549,nguruka,-4.456,30.9771,62,96,92,1.1,tz,1682651468
550,uturoa,-6.2401,-151.9753,83,74,11,5.57,pf,1682651469
551,dili,-8.6034,125.6199,77,77,66,3.19,tl,1682651470
552,nuuk,63.4153,-48.5117,-4,79,3,4.45,gl,1682651470
553,eseka,3.6741,10.8789,69,98,100,0.28,cm,1682651470
554,peruibe,-26.1428,-45.9392,75,69,0,6.37,br,1682651471
555,hailar,49.493,119.9437,46,22,98,6.6,cn,1682651471
556,visby,56.8929,18.9721,41,77,9,5.3,se,1682651472
557,da nang,16.6904,108.9094,81,86,61,6.13,vn,1682651473
558,hualien city,22.9989,122.376,78,83,21,4.78,tw,1682651473
559,moose jaw,50.1002,-106.6434,41,83,98,3.13,ca,1682651474
560,gumdag,38.3727,54.6478,75,44,100,3.67,tm,1682651474
561,cill airne,48.9402,-11.225,56,91,100,5.17,ie,1682651475
562,tamiahua,22.3525,-95.2567,80,90,97,3.1,mx,1682651476
563,kushiro,43.0804,144.8681,51,65,90,0.81,jp,1682651477
564,menongue,-16.0032,17.1937,61,46,43,2.9,ao,1682651478
565,umluj,24.0981,37.0281,77,70,0,5.41,sa,1682651479
566,ati,13.1133,18.9886,82,14,73,2.16,td,1682651479
567,wainwright,51.518,-110.3271,42,67,98,2.41,ca,1682651480
568,porto novo,15.1449,-38.3625,76,74,14,4.79,cv,1682651481
569,faro,35.8928,-8.0402,68,80,100,3.85,pt,1682651482
570,yeppoon,-20.3711,154.6744,77,64,8,6.95,au,1682651482
571,dawson creek,55.7779,-120.1448,53,82,100,7.64,ca,1682651483
572,gamba,-5.4698,8.6488,82,82,100,6.63,ga,1682651483
573,uruzgan,32.797,66.4751,60,33,21,1.7,af,1682651484
574,zwedru,5.6476,-8.6457,73,97,22,0.93,lr,1682651484
575,hinton,52.3697,-117.8685,38,83,74,2.44,ca,1682651485
